time,header.seq,header.stamp.secs,header.stamp.nsecs,header.frame_id,status.status,status.service,latitude,longitude,altitude,position_covariance,position_covariance_type
2022/03/21/14:40:49.620695,31688,1647841249,499970976,gps,2,1,37.3656404,126.7247979,33.234,"(0.00019600000000000002, 0.0, 0.0, 0.0, 0.00019600000000000002, 0.0, 0.0, 0.0, 0.0001)",2
2022/03/21/14:40:49.713325,31689,1647841249,599970952,gps,2,1,37.3656401,126.7247977,33.232,"(0.00019600000000000002, 0.0, 0.0, 0.0, 0.00019600000000000002, 0.0, 0.0, 0.0, 0.0001)",2
2022/03/21/14:40:49.816608,31690,1647841249,699970928,gps,2,1,37.3656398,126.7247974,33.23,"(0.00019600000000000002, 0.0, 0.0, 0.0, 0.00019600000000000002, 0.0, 0.0, 0.0, 0.0001)",2
2022/03/21/14:40:49.914087,31691,1647841249,799970904,gps,2,1,37.3656395,126.7247971,33.231,"(0.00019600000000000002, 0.0, 0.0, 0.0, 0.00019600000000000002, 0.0, 0.0, 0.0, 0.0001)",2
2022/03/21/14:40:50.014487,31692,1647841249,899970881,gps,2,1,37.3656391,126.7247967,33.234,"(0.00019600000000000002, 0.0, 0.0, 0.0, 0.00019600000000000002, 0.0, 0.0, 0.0, 0.0001)",2
2022/03/21/14:40:50.118693,31693,1647841249,999970858,gps,2,1,37.3656387,126.7247963,33.236,"(0.00019600000000000002, 0.0, 0.0, 0.0, 0.00019600000000000002, 0.0, 0.0, 0.0, 0.0001)",2
2022/03/21/14:40:50.224538,31694,1647841250,99970833,gps,2,1,37.3656381,126.7247958,33.232,"(0.00019600000000000002, 0.0, 0.0, 0.0, 0.00019600000000000002, 0.0, 0.0, 0.0, 0.0001)",2
2022/03/21/14:40:50.325204,31695,1647841250,199970809,gps,2,1,37.3656376,126.7247952,33.236,"(0.00019600000000000002, 0.0, 0.0, 0.0, 0.00019600000000000002, 0.0, 0.0, 0.0, 0.0001)",2
2022/03/21/14:40:50.418276,31696,1647841250,299970785,gps,2,1,37.3656369,126.7247946,33.236,"(0.00019600000000000002, 0.0, 0.0, 0.0, 0.00019600000000000002, 0.0, 0.0, 0.0, 0.0001)",2
2022/03/21/14:40:50.514536,31697,1647841250,399970761,gps,2,1,37.3656361,126.7247939,33.238,"(0.00019600000000000002, 0.0, 0.0, 0.0, 0.00019600000000000002, 0.0, 0.0, 0.0, 0.0001)",2
2022/03/21/14:40:50.611290,31698,1647841250,499970737,gps,2,1,37.3656353,126.7247931,33.24,"(0.00019600000000000002, 0.0, 0.0, 0.0, 0.00019600000000000002, 0.0, 0.0, 0.0, 0.0001)",2
2022/03/21/14:40:50.715538,31699,1647841250,599970713,gps,2,1,37.3656344,126.7247922,33.243,"(0.00019600000000000002, 0.0, 0.0, 0.0, 0.00019600000000000002, 0.0, 0.0, 0.0, 0.0001)",2
2022/03/21/14:40:50.814595,31700,1647841250,699970689,gps,2,1,37.3656333,126.7247912,33.247,"(0.00019600000000000002, 0.0, 0.0, 0.0, 0.00019600000000000002, 0.0, 0.0, 0.0, 0.0001)",2
2022/03/21/14:40:50.916568,31701,1647841250,799970665,gps,2,1,37.3656323,126.7247902,33.247,"(0.00019600000000000002, 0.0, 0.0, 0.0, 0.00019600000000000002, 0.0, 0.0, 0.0, 0.0001)",2
2022/03/21/14:40:51.016130,31702,1647841250,899970642,gps,2,1,37.3656311,126.7247891,33.249,"(0.00019600000000000002, 0.0, 0.0, 0.0, 0.00019600000000000002, 0.0, 0.0, 0.0, 0.0001)",2
2022/03/21/14:40:51.119374,31703,1647841250,999970619,gps,2,1,37.3656298,126.7247878,33.247,"(0.00019600000000000002, 0.0, 0.0, 0.0, 0.00019600000000000002, 0.0, 0.0, 0.0, 0.0001)",2
2022/03/21/14:40:51.222406,31704,1647841251,99970594,gps,2,1,37.3656284,126.7247865,33.247,"(0.00019600000000000002, 0.0, 0.0, 0.0, 0.00019600000000000002, 0.0, 0.0, 0.0, 0.0001)",2
2022/03/21/14:40:51.326602,31705,1647841251,199970570,gps,2,1,37.365627,126.7247852,33.248,"(0.00019600000000000002, 0.0, 0.0, 0.0, 0.00019600000000000002, 0.0, 0.0, 0.0, 0.0001)",2
2022/03/21/14:40:51.415570,31706,1647841251,299970546,gps,2,1,37.3656254,126.7247837,33.251,"(0.00019600000000000002, 0.0, 0.0, 0.0, 0.00019600000000000002, 0.0, 0.0, 0.0, 0.0001)",2
2022/03/21/14:40:51.511653,31707,1647841251,399970522,gps,2,1,37.3656238,126.7247821,33.251,"(0.00019600000000000002, 0.0, 0.0, 0.0, 0.00019600000000000002, 0.0, 0.0, 0.0, 0.0001)",2
2022/03/21/14:40:51.621429,31708,1647841251,499970498,gps,2,1,37.3656221,126.7247805,33.254,"(0.00019600000000000002, 0.0, 0.0, 0.0, 0.00019600000000000002, 0.0, 0.0, 0.0, 0.0001)",2
2022/03/21/14:40:51.715588,31709,1647841251,599970474,gps,2,1,37.3656202,126.7247788,33.252,"(0.00019600000000000002, 0.0, 0.0, 0.0, 0.00019600000000000002, 0.0, 0.0, 0.0, 0.0001)",2
2022/03/21/14:40:51.817071,31710,1647841251,699970450,gps,2,1,37.3656183,126.724777,33.253,"(0.00019600000000000002, 0.0, 0.0, 0.0, 0.00019600000000000002, 0.0, 0.0, 0.0, 0.0001)",2
2022/03/21/14:40:51.916537,31711,1647841251,799970427,gps,2,1,37.3656163,126.724775,33.252,"(0.00019600000000000002, 0.0, 0.0, 0.0, 0.00019600000000000002, 0.0, 0.0, 0.0, 0.0001)",2
2022/03/21/14:40:52.015521,31712,1647841251,899970403,gps,2,1,37.3656142,126.7247731,33.255,"(0.00019600000000000002, 0.0, 0.0, 0.0, 0.00019600000000000002, 0.0, 0.0, 0.0, 0.0001)",2
2022/03/21/14:40:52.123599,31713,1647841251,999970380,gps,2,1,37.365612,126.724771,33.255,"(0.00019600000000000002, 0.0, 0.0, 0.0, 0.00019600000000000002, 0.0, 0.0, 0.0, 0.0001)",2
2022/03/21/14:40:52.216743,31714,1647841252,99970355,gps,2,1,37.3656097,126.7247688,33.258,"(0.00019600000000000002, 0.0, 0.0, 0.0, 0.00019600000000000002, 0.0, 0.0, 0.0, 0.0001)",2
2022/03/21/14:40:52.318414,31715,1647841252,199970331,gps,2,1,37.3656073,126.7247666,33.258,"(0.00019600000000000002, 0.0, 0.0, 0.0, 0.00019600000000000002, 0.0, 0.0, 0.0, 0.0001)",2
2022/03/21/14:40:52.412990,31716,1647841252,299970307,gps,2,1,37.3656048,126.7247643,33.26,"(0.00019600000000000002, 0.0, 0.0, 0.0, 0.00019600000000000002, 0.0, 0.0, 0.0, 0.0001)",2
2022/03/21/14:40:52.516262,31717,1647841252,399970283,gps,2,1,37.3656023,126.7247619,33.261,"(0.00019600000000000002, 0.0, 0.0, 0.0, 0.00019600000000000002, 0.0, 0.0, 0.0, 0.0001)",2
2022/03/21/14:40:52.626284,31718,1647841252,499970259,gps,2,1,37.3655996,126.7247594,33.259,"(0.00019600000000000002, 0.0, 0.0, 0.0, 0.00019600000000000002, 0.0, 0.0, 0.0, 0.0001)",2
2022/03/21/14:40:52.717107,31719,1647841252,599970236,gps,2,1,37.3655969,126.7247568,33.259,"(0.00019600000000000002, 0.0, 0.0, 0.0, 0.00019600000000000002, 0.0, 0.0, 0.0, 0.0001)",2
2022/03/21/14:40:52.817316,31720,1647841252,699970212,gps,2,1,37.3655941,126.7247542,33.26,"(0.00019600000000000002, 0.0, 0.0, 0.0, 0.00019600000000000002, 0.0, 0.0, 0.0, 0.0001)",2
2022/03/21/14:40:52.914534,31721,1647841252,799970188,gps,2,1,37.3655912,126.7247514,33.26,"(0.00019600000000000002, 0.0, 0.0, 0.0, 0.00019600000000000002, 0.0, 0.0, 0.0, 0.0001)",2
2022/03/21/14:40:53.015523,31722,1647841252,899970164,gps,2,1,37.3655882,126.7247486,33.261,"(0.00019600000000000002, 0.0, 0.0, 0.0, 0.00019600000000000002, 0.0, 0.0, 0.0, 0.0001)",2
2022/03/21/14:40:53.120432,31723,1647841252,999970141,gps,2,1,37.3655851,126.7247457,33.263,"(0.00019600000000000002, 0.0, 0.0, 0.0, 0.00019600000000000002, 0.0, 0.0, 0.0, 0.0001)",2
2022/03/21/14:40:53.219200,31724,1647841253,99970116,gps,2,1,37.365582,126.7247428,33.265,"(0.00019600000000000002, 0.0, 0.0, 0.0, 0.00019600000000000002, 0.0, 0.0, 0.0, 0.0001)",2
2022/03/21/14:40:53.318691,31725,1647841253,199970092,gps,2,1,37.3655787,126.7247397,33.265,"(0.00019600000000000002, 0.0, 0.0, 0.0, 0.00019600000000000002, 0.0, 0.0, 0.0, 0.0001)",2
2022/03/21/14:40:53.415972,31726,1647841253,299970068,gps,2,1,37.3655754,126.7247366,33.268,"(0.00019600000000000002, 0.0, 0.0, 0.0, 0.00019600000000000002, 0.0, 0.0, 0.0, 0.0001)",2
2022/03/21/14:40:53.514458,31727,1647841253,399970044,gps,2,1,37.365572,126.7247334,33.269,"(0.00019600000000000002, 0.0, 0.0, 0.0, 0.00019600000000000002, 0.0, 0.0, 0.0, 0.0001)",2
2022/03/21/14:40:53.622150,31728,1647841253,499970021,gps,2,1,37.3655686,126.7247302,33.269,"(0.00019600000000000002, 0.0, 0.0, 0.0, 0.00019600000000000002, 0.0, 0.0, 0.0, 0.0001)",2
2022/03/21/14:40:53.715743,31729,1647841253,599969997,gps,2,1,37.3655651,126.7247269,33.269,"(0.00019600000000000002, 0.0, 0.0, 0.0, 0.00019600000000000002, 0.0, 0.0, 0.0, 0.0001)",2
2022/03/21/14:40:53.814801,31730,1647841253,699969973,gps,2,1,37.3655615,126.7247236,33.27,"(0.00019600000000000002, 0.0, 0.0, 0.0, 0.00019600000000000002, 0.0, 0.0, 0.0, 0.0001)",2
2022/03/21/14:40:53.916236,31731,1647841253,799969949,gps,2,1,37.3655579,126.7247202,33.271,"(0.00019600000000000002, 0.0, 0.0, 0.0, 0.00019600000000000002, 0.0, 0.0, 0.0, 0.0001)",2
2022/03/21/14:40:54.014752,31732,1647841253,899969925,gps,2,1,37.3655543,126.7247168,33.271,"(0.00019600000000000002, 0.0, 0.0, 0.0, 0.00019600000000000002, 0.0, 0.0, 0.0, 0.0001)",2
2022/03/21/14:40:54.119722,31733,1647841253,999969902,gps,2,1,37.3655506,126.7247133,33.273,"(0.00019600000000000002, 0.0, 0.0, 0.0, 0.00019600000000000002, 0.0, 0.0, 0.0, 0.0001)",2
2022/03/21/14:40:54.211842,31734,1647841254,99969877,gps,2,1,37.3655469,126.7247098,33.275,"(0.00019600000000000002, 0.0, 0.0, 0.0, 0.00019600000000000002, 0.0, 0.0, 0.0, 0.0001)",2
2022/03/21/14:40:54.317990,31735,1647841254,199969853,gps,2,1,37.3655431,126.7247062,33.276,"(0.00019600000000000002, 0.0, 0.0, 0.0, 0.00019600000000000002, 0.0, 0.0, 0.0, 0.0001)",2
2022/03/21/14:40:54.415346,31736,1647841254,299969829,gps,2,1,37.3655393,126.7247026,33.279,"(0.00019600000000000002, 0.0, 0.0, 0.0, 0.00019600000000000002, 0.0, 0.0, 0.0, 0.0001)",2
2022/03/21/14:40:54.516730,31737,1647841254,399969806,gps,2,1,37.3655354,126.7246989,33.281,"(0.00019600000000000002, 0.0, 0.0, 0.0, 0.00019600000000000002, 0.0, 0.0, 0.0, 0.0001)",2
2022/03/21/14:40:54.623484,31738,1647841254,499969782,gps,2,1,37.3655315,126.7246953,33.282,"(0.00019600000000000002, 0.0, 0.0, 0.0, 0.00019600000000000002, 0.0, 0.0, 0.0, 0.0001)",2
2022/03/21/14:40:54.715732,31739,1647841254,599969758,gps,2,1,37.3655276,126.7246915,33.285,"(0.00019600000000000002, 0.0, 0.0, 0.0, 0.00019600000000000002, 0.0, 0.0, 0.0, 0.0001)",2
2022/03/21/14:40:54.817504,31740,1647841254,699969734,gps,2,1,37.3655236,126.7246878,33.284,"(0.00019600000000000002, 0.0, 0.0, 0.0, 0.00019600000000000002, 0.0, 0.0, 0.0, 0.0001)",2
2022/03/21/14:40:54.916401,31741,1647841254,799969710,gps,2,1,37.3655196,126.724684,33.285,"(0.00019600000000000002, 0.0, 0.0, 0.0, 0.00019600000000000002, 0.0, 0.0, 0.0, 0.0001)",2
2022/03/21/14:40:55.014839,31742,1647841254,899969686,gps,2,1,37.3655156,126.7246802,33.286,"(0.00019600000000000002, 0.0, 0.0, 0.0, 0.00019600000000000002, 0.0, 0.0, 0.0, 0.0001)",2
2022/03/21/14:40:55.116554,31743,1647841254,999969663,gps,2,1,37.3655115,126.7246763,33.287,"(0.00019600000000000002, 0.0, 0.0, 0.0, 0.00019600000000000002, 0.0, 0.0, 0.0, 0.0001)",2
2022/03/21/14:40:55.216446,31744,1647841255,99969638,gps,2,1,37.3655074,126.7246724,33.288,"(0.00019600000000000002, 0.0, 0.0, 0.0, 0.00019600000000000002, 0.0, 0.0, 0.0, 0.0001)",2
2022/03/21/14:40:55.315803,31745,1647841255,199969614,gps,2,1,37.3655033,126.7246685,33.29,"(0.00019600000000000002, 0.0, 0.0, 0.0, 0.00019600000000000002, 0.0, 0.0, 0.0, 0.0001)",2
2022/03/21/14:40:55.418781,31746,1647841255,299969591,gps,2,1,37.3654992,126.7246646,33.291,"(0.00019600000000000002, 0.0, 0.0, 0.0, 0.00019600000000000002, 0.0, 0.0, 0.0, 0.0001)",2
2022/03/21/14:40:55.515806,31747,1647841255,399969567,gps,2,1,37.365495,126.7246606,33.289,"(0.00019600000000000002, 0.0, 0.0, 0.0, 0.00019600000000000002, 0.0, 0.0, 0.0, 0.0001)",2
2022/03/21/14:40:55.620792,31748,1647841255,499969543,gps,2,1,37.3654907,126.7246566,33.29,"(0.00019600000000000002, 0.0, 0.0, 0.0, 0.00019600000000000002, 0.0, 0.0, 0.0, 0.0001)",2
2022/03/21/14:40:55.716314,31749,1647841255,599969519,gps,2,1,37.3654864,126.7246526,33.296,"(0.00019600000000000002, 0.0, 0.0, 0.0, 0.00019600000000000002, 0.0, 0.0, 0.0, 0.0001)",2
2022/03/21/14:40:55.816263,31750,1647841255,699969495,gps,2,1,37.3654821,126.7246486,33.297,"(0.00019600000000000002, 0.0, 0.0, 0.0, 0.00019600000000000002, 0.0, 0.0, 0.0, 0.0001)",2
2022/03/21/14:40:55.913831,31751,1647841255,799969471,gps,2,1,37.3654778,126.7246445,33.3,"(0.00019600000000000002, 0.0, 0.0, 0.0, 0.00019600000000000002, 0.0, 0.0, 0.0, 0.0001)",2
2022/03/21/14:40:56.010231,31752,1647841255,899969447,gps,2,1,37.3654734,126.7246404,33.3,"(0.00019600000000000002, 0.0, 0.0, 0.0, 0.00019600000000000002, 0.0, 0.0, 0.0, 0.0001)",2
2022/03/21/14:40:56.119582,31753,1647841255,999969425,gps,2,1,37.3654691,126.7246362,33.301,"(0.00019600000000000002, 0.0, 0.0, 0.0, 0.00019600000000000002, 0.0, 0.0, 0.0, 0.0001)",2
2022/03/21/14:40:56.224499,31754,1647841256,99969400,gps,2,1,37.3654646,126.7246321,33.302,"(0.00019600000000000002, 0.0, 0.0, 0.0, 0.00019600000000000002, 0.0, 0.0, 0.0, 0.0001)",2
2022/03/21/14:40:56.318517,31755,1647841256,199969376,gps,2,1,37.3654602,126.7246279,33.301,"(0.00019600000000000002, 0.0, 0.0, 0.0, 0.00019600000000000002, 0.0, 0.0, 0.0, 0.0001)",2
2022/03/21/14:40:56.417983,31756,1647841256,299969352,gps,2,1,37.3654557,126.7246237,33.299,"(0.00019600000000000002, 0.0, 0.0, 0.0, 0.00019600000000000002, 0.0, 0.0, 0.0, 0.0001)",2
2022/03/21/14:40:56.517924,31757,1647841256,399969328,gps,2,1,37.3654512,126.7246194,33.299,"(0.00019600000000000002, 0.0, 0.0, 0.0, 0.00019600000000000002, 0.0, 0.0, 0.0, 0.0001)",2
2022/03/21/14:40:56.622716,31758,1647841256,499969304,gps,2,1,37.3654467,126.7246151,33.3,"(0.00019600000000000002, 0.0, 0.0, 0.0, 0.00019600000000000002, 0.0, 0.0, 0.0, 0.0001)",2
2022/03/21/14:40:56.717326,31759,1647841256,599969280,gps,2,1,37.3654421,126.7246108,33.299,"(0.00019600000000000002, 0.0, 0.0, 0.0, 0.00019600000000000002, 0.0, 0.0, 0.0, 0.0001)",2
2022/03/21/14:40:56.816204,31760,1647841256,699969256,gps,2,1,37.3654375,126.7246065,33.299,"(0.00019600000000000002, 0.0, 0.0, 0.0, 0.00019600000000000002, 0.0, 0.0, 0.0, 0.0001)",2
2022/03/21/14:40:56.912586,31761,1647841256,799969232,gps,2,1,37.3654329,126.7246021,33.298,"(0.00019600000000000002, 0.0, 0.0, 0.0, 0.00019600000000000002, 0.0, 0.0, 0.0, 0.0001)",2
2022/03/21/14:40:57.016142,31762,1647841256,899969209,gps,2,1,37.3654283,126.7245977,33.298,"(0.00019600000000000002, 0.0, 0.0, 0.0, 0.00019600000000000002, 0.0, 0.0, 0.0, 0.0001)",2
2022/03/21/14:40:57.120570,31763,1647841256,999969186,gps,2,1,37.3654236,126.7245933,33.297,"(0.00019600000000000002, 0.0, 0.0, 0.0, 0.00019600000000000002, 0.0, 0.0, 0.0, 0.0001)",2
2022/03/21/14:40:57.217302,31764,1647841257,99969161,gps,2,1,37.3654189,126.7245889,33.299,"(0.00019600000000000002, 0.0, 0.0, 0.0, 0.00019600000000000002, 0.0, 0.0, 0.0, 0.0001)",2
2022/03/21/14:40:57.320353,31765,1647841257,199969137,gps,2,1,37.3654141,126.7245844,33.299,"(0.00019600000000000002, 0.0, 0.0, 0.0, 0.00019600000000000002, 0.0, 0.0, 0.0, 0.0001)",2
2022/03/21/14:40:57.415753,31766,1647841257,299969113,gps,2,1,37.3654093,126.7245799,33.299,"(0.00019600000000000002, 0.0, 0.0, 0.0, 0.00019600000000000002, 0.0, 0.0, 0.0, 0.0001)",2
2022/03/21/14:40:57.516840,31767,1647841257,399969089,gps,2,1,37.3654046,126.7245754,33.299,"(0.00019600000000000002, 0.0, 0.0, 0.0, 0.00019600000000000002, 0.0, 0.0, 0.0, 0.0001)",2
2022/03/21/14:40:57.623738,31768,1647841257,499969065,gps,2,1,37.3653998,126.7245709,33.299,"(0.00019600000000000002, 0.0, 0.0, 0.0, 0.00019600000000000002, 0.0, 0.0, 0.0, 0.0001)",2
2022/03/21/14:40:57.716591,31769,1647841257,599969041,gps,2,1,37.3653949,126.7245663,33.303,"(0.00019600000000000002, 0.0, 0.0, 0.0, 0.00019600000000000002, 0.0, 0.0, 0.0, 0.0001)",2
2022/03/21/14:40:57.812647,31770,1647841257,699969017,gps,2,1,37.36539,126.7245617,33.306,"(0.00019600000000000002, 0.0, 0.0, 0.0, 0.00019600000000000002, 0.0, 0.0, 0.0, 0.0001)",2
2022/03/21/14:40:57.917498,31771,1647841257,799968993,gps,2,1,37.3653851,126.7245571,33.309,"(0.00019600000000000002, 0.0, 0.0, 0.0, 0.00019600000000000002, 0.0, 0.0, 0.0, 0.0001)",2
2022/03/21/14:40:58.016335,31772,1647841257,899968970,gps,2,1,37.3653801,126.7245525,33.315,"(0.00019600000000000002, 0.0, 0.0, 0.0, 0.00019600000000000002, 0.0, 0.0, 0.0, 0.0001)",2
2022/03/21/14:40:58.123720,31773,1647841257,999968947,gps,2,1,37.3653752,126.7245478,33.319,"(0.00019600000000000002, 0.0, 0.0, 0.0, 0.00019600000000000002, 0.0, 0.0, 0.0, 0.0001)",2
2022/03/21/14:40:58.220161,31774,1647841258,99968922,gps,2,1,37.3653702,126.7245431,33.321,"(0.00019600000000000002, 0.0, 0.0, 0.0, 0.00019600000000000002, 0.0, 0.0, 0.0, 0.0001)",2
2022/03/21/14:40:58.342769,31775,1647841258,199968898,gps,2,1,37.3653652,126.7245384,33.321,"(0.00019600000000000002, 0.0, 0.0, 0.0, 0.00019600000000000002, 0.0, 0.0, 0.0, 0.0001)",2
2022/03/21/14:40:58.516832,31776,1647841258,399968850,gps,2,1,37.3653551,126.7245289,33.328,"(0.00019600000000000002, 0.0, 0.0, 0.0, 0.00019600000000000002, 0.0, 0.0, 0.0, 0.0001)",2
2022/03/21/14:40:58.622683,31777,1647841258,499968826,gps,2,1,37.36535,126.7245241,33.331,"(0.00019600000000000002, 0.0, 0.0, 0.0, 0.00019600000000000002, 0.0, 0.0, 0.0, 0.0001)",2
2022/03/21/14:40:58.713799,31778,1647841258,599968802,gps,2,1,37.3653448,126.7245193,33.331,"(0.00019600000000000002, 0.0, 0.0, 0.0, 0.00019600000000000002, 0.0, 0.0, 0.0, 0.0001)",2
2022/03/21/14:40:58.817811,31779,1647841258,699968778,gps,2,1,37.3653397,126.7245145,33.336,"(0.00019600000000000002, 0.0, 0.0, 0.0, 0.00019600000000000002, 0.0, 0.0, 0.0, 0.0001)",2
2022/03/21/14:40:58.915769,31780,1647841258,799968755,gps,2,1,37.3653345,126.7245096,33.333,"(0.00019600000000000002, 0.0, 0.0, 0.0, 0.00019600000000000002, 0.0, 0.0, 0.0, 0.0001)",2
2022/03/21/14:40:59.016919,31781,1647841258,899968731,gps,2,1,37.3653294,126.7245047,33.336,"(0.00019600000000000002, 0.0, 0.0, 0.0, 0.00019600000000000002, 0.0, 0.0, 0.0, 0.0001)",2
2022/03/21/14:40:59.121515,31782,1647841258,999968708,gps,2,1,37.3653242,126.7244999,33.338,"(0.00019600000000000002, 0.0, 0.0, 0.0, 0.00019600000000000002, 0.0, 0.0, 0.0, 0.0001)",2
2022/03/21/14:40:59.217602,31783,1647841259,99968683,gps,2,1,37.365319,126.724495,33.341,"(0.00019600000000000002, 0.0, 0.0, 0.0, 0.00019600000000000002, 0.0, 0.0, 0.0, 0.0001)",2
2022/03/21/14:40:59.327864,31784,1647841259,199968659,gps,2,1,37.3653137,126.7244901,33.342,"(0.00019600000000000002, 0.0, 0.0, 0.0, 0.00019600000000000002, 0.0, 0.0, 0.0, 0.0001)",2
2022/03/21/14:40:59.416692,31785,1647841259,299968635,gps,2,1,37.3653085,126.7244852,33.345,"(0.00019600000000000002, 0.0, 0.0, 0.0, 0.00019600000000000002, 0.0, 0.0, 0.0, 0.0001)",2
2022/03/21/14:40:59.515421,31786,1647841259,399968611,gps,2,1,37.3653033,126.7244802,33.347,"(0.00019600000000000002, 0.0, 0.0, 0.0, 0.00019600000000000002, 0.0, 0.0, 0.0, 0.0001)",2
2022/03/21/14:40:59.617274,31787,1647841259,499968587,gps,2,1,37.365298,126.7244754,33.347,"(0.00019600000000000002, 0.0, 0.0, 0.0, 0.00019600000000000002, 0.0, 0.0, 0.0, 0.0001)",2
2022/03/21/14:40:59.716873,31788,1647841259,599968564,gps,2,1,37.3652928,126.7244704,33.355,"(0.00019600000000000002, 0.0, 0.0, 0.0, 0.00019600000000000002, 0.0, 0.0, 0.0, 0.0001)",2
2022/03/21/14:40:59.815790,31789,1647841259,699968540,gps,2,1,37.3652876,126.7244656,33.358,"(0.00019600000000000002, 0.0, 0.0, 0.0, 0.00019600000000000002, 0.0, 0.0, 0.0, 0.0001)",2
2022/03/21/14:40:59.916459,31790,1647841259,799968516,gps,2,1,37.3652824,126.7244607,33.358,"(0.00019600000000000002, 0.0, 0.0, 0.0, 0.00019600000000000002, 0.0, 0.0, 0.0, 0.0001)",2
2022/03/21/14:41:00.015821,31791,1647841259,899968492,gps,2,1,37.3652772,126.7244558,33.362,"(0.00019600000000000002, 0.0, 0.0, 0.0, 0.00019600000000000002, 0.0, 0.0, 0.0, 0.0001)",2
2022/03/21/14:41:00.120676,31792,1647841259,999968469,gps,2,1,37.365272,126.724451,33.365,"(0.00019600000000000002, 0.0, 0.0, 0.0, 0.00019600000000000002, 0.0, 0.0, 0.0, 0.0001)",2
2022/03/21/14:41:00.217241,31793,1647841260,99968444,gps,2,1,37.3652669,126.7244461,33.368,"(0.00019600000000000002, 0.0, 0.0, 0.0, 0.00019600000000000002, 0.0, 0.0, 0.0, 0.0001)",2
2022/03/21/14:41:00.320684,31794,1647841260,199968420,gps,2,1,37.3652617,126.7244413,33.372,"(0.00019600000000000002, 0.0, 0.0, 0.0, 0.00019600000000000002, 0.0, 0.0, 0.0, 0.0001)",2
2022/03/21/14:41:00.416742,31795,1647841260,299968396,gps,2,1,37.3652566,126.7244365,33.373,"(0.00019600000000000002, 0.0, 0.0, 0.0, 0.00019600000000000002, 0.0, 0.0, 0.0, 0.0001)",2
2022/03/21/14:41:00.513040,31796,1647841260,399968373,gps,2,1,37.3652515,126.7244317,33.376,"(0.00019600000000000002, 0.0, 0.0, 0.0, 0.00019600000000000002, 0.0, 0.0, 0.0, 0.0001)",2
2022/03/21/14:41:00.622919,31797,1647841260,499968349,gps,2,1,37.3652464,126.7244269,33.381,"(0.00019600000000000002, 0.0, 0.0, 0.0, 0.00019600000000000002, 0.0, 0.0, 0.0, 0.0001)",2
2022/03/21/14:41:00.717286,31798,1647841260,599968325,gps,2,1,37.3652413,126.7244221,33.381,"(0.00019600000000000002, 0.0, 0.0, 0.0, 0.00019600000000000002, 0.0, 0.0, 0.0, 0.0001)",2
2022/03/21/14:41:00.818915,31799,1647841260,699968301,gps,2,1,37.3652362,126.7244173,33.382,"(0.00019600000000000002, 0.0, 0.0, 0.0, 0.00019600000000000002, 0.0, 0.0, 0.0, 0.0001)",2
2022/03/21/14:41:00.918460,31800,1647841260,799968277,gps,2,1,37.3652311,126.7244125,33.386,"(0.00019600000000000002, 0.0, 0.0, 0.0, 0.00019600000000000002, 0.0, 0.0, 0.0, 0.0001)",2
2022/03/21/14:41:01.016858,31801,1647841260,899968253,gps,2,1,37.365226,126.7244078,33.39,"(0.00019600000000000002, 0.0, 0.0, 0.0, 0.00019600000000000002, 0.0, 0.0, 0.0, 0.0001)",2
2022/03/21/14:41:01.123849,31802,1647841260,999968230,gps,2,1,37.365221,126.724403,33.392,"(0.00019600000000000002, 0.0, 0.0, 0.0, 0.00019600000000000002, 0.0, 0.0, 0.0, 0.0001)",2
2022/03/21/14:41:01.221848,31803,1647841261,99968205,gps,2,1,37.3652159,126.7243983,33.396,"(0.00019600000000000002, 0.0, 0.0, 0.0, 0.00019600000000000002, 0.0, 0.0, 0.0, 0.0001)",2
2022/03/21/14:41:01.316964,31804,1647841261,199968181,gps,2,1,37.3652109,126.7243936,33.398,"(0.00019600000000000002, 0.0, 0.0, 0.0, 0.00019600000000000002, 0.0, 0.0, 0.0, 0.0001)",2
2022/03/21/14:41:01.413097,31805,1647841261,299968157,gps,2,1,37.3652059,126.7243889,33.398,"(0.00019600000000000002, 0.0, 0.0, 0.0, 0.00019600000000000002, 0.0, 0.0, 0.0, 0.0001)",2
2022/03/21/14:41:01.519818,31806,1647841261,399968133,gps,2,1,37.3652009,126.7243841,33.402,"(0.00019600000000000002, 0.0, 0.0, 0.0, 0.00019600000000000002, 0.0, 0.0, 0.0, 0.0001)",2
2022/03/21/14:41:01.623033,31807,1647841261,499968110,gps,2,1,37.3651959,126.7243794,33.405,"(0.00019600000000000002, 0.0, 0.0, 0.0, 0.00019600000000000002, 0.0, 0.0, 0.0, 0.0001)",2
2022/03/21/14:41:01.717946,31808,1647841261,599968086,gps,2,1,37.3651908,126.7243748,33.411,"(0.00019600000000000002, 0.0, 0.0, 0.0, 0.00019600000000000002, 0.0, 0.0, 0.0, 0.0001)",2
2022/03/21/14:41:01.817230,31809,1647841261,699968062,gps,2,1,37.3651858,126.7243701,33.413,"(0.00019600000000000002, 0.0, 0.0, 0.0, 0.00019600000000000002, 0.0, 0.0, 0.0, 0.0001)",2
2022/03/21/14:41:01.916118,31810,1647841261,799968038,gps,2,1,37.3651809,126.7243654,33.417,"(0.00019600000000000002, 0.0, 0.0, 0.0, 0.00019600000000000002, 0.0, 0.0, 0.0, 0.0001)",2
2022/03/21/14:41:02.016885,31811,1647841261,899968014,gps,2,1,37.3651759,126.7243608,33.419,"(0.00019600000000000002, 0.0, 0.0, 0.0, 0.00019600000000000002, 0.0, 0.0, 0.0, 0.0001)",2
2022/03/21/14:41:02.121591,31812,1647841261,999967991,gps,2,1,37.3651709,126.7243561,33.421,"(0.00019600000000000002, 0.0, 0.0, 0.0, 0.00019600000000000002, 0.0, 0.0, 0.0, 0.0001)",2
2022/03/21/14:41:02.215975,31813,1647841262,99967966,gps,2,1,37.365166,126.7243515,33.422,"(0.00019600000000000002, 0.0, 0.0, 0.0, 0.00019600000000000002, 0.0, 0.0, 0.0, 0.0001)",2
2022/03/21/14:41:02.316015,31814,1647841262,199967942,gps,2,1,37.365161,126.7243468,33.424,"(0.00019600000000000002, 0.0, 0.0, 0.0, 0.00019600000000000002, 0.0, 0.0, 0.0, 0.0001)",2
2022/03/21/14:41:02.418996,31815,1647841262,299967918,gps,2,1,37.365156,126.7243422,33.425,"(0.00019600000000000002, 0.0, 0.0, 0.0, 0.00019600000000000002, 0.0, 0.0, 0.0, 0.0001)",2
2022/03/21/14:41:02.521557,31816,1647841262,399967894,gps,2,1,37.3651511,126.7243376,33.426,"(0.00019600000000000002, 0.0, 0.0, 0.0, 0.00019600000000000002, 0.0, 0.0, 0.0, 0.0001)",2
2022/03/21/14:41:02.623327,31817,1647841262,499967870,gps,2,1,37.3651462,126.7243329,33.428,"(0.00019600000000000002, 0.0, 0.0, 0.0, 0.00019600000000000002, 0.0, 0.0, 0.0, 0.0001)",2
2022/03/21/14:41:02.717284,31818,1647841262,599967847,gps,2,1,37.3651413,126.7243283,33.423,"(0.00019600000000000002, 0.0, 0.0, 0.0, 0.00019600000000000002, 0.0, 0.0, 0.0, 0.0001)",2
2022/03/21/14:41:02.816566,31819,1647841262,699967823,gps,2,1,37.3651363,126.7243237,33.422,"(0.00019600000000000002, 0.0, 0.0, 0.0, 0.00019600000000000002, 0.0, 0.0, 0.0, 0.0001)",2
2022/03/21/14:41:02.917851,31820,1647841262,799967799,gps,2,1,37.3651314,126.724319,33.424,"(0.00019600000000000002, 0.0, 0.0, 0.0, 0.00019600000000000002, 0.0, 0.0, 0.0, 0.0001)",2
2022/03/21/14:41:03.122177,31821,1647841262,999967752,gps,2,1,37.3651216,126.7243098,33.428,"(0.00019600000000000002, 0.0, 0.0, 0.0, 0.00019600000000000002, 0.0, 0.0, 0.0, 0.0001)",2
2022/03/21/14:41:03.216027,31822,1647841263,99967727,gps,2,1,37.3651167,126.7243051,33.432,"(0.00019600000000000002, 0.0, 0.0, 0.0, 0.00019600000000000002, 0.0, 0.0, 0.0, 0.0001)",2
2022/03/21/14:41:03.318095,31823,1647841263,199967703,gps,2,1,37.3651118,126.7243005,33.436,"(0.00019600000000000002, 0.0, 0.0, 0.0, 0.00019600000000000002, 0.0, 0.0, 0.0, 0.0001)",2
2022/03/21/14:41:03.416579,31824,1647841263,299967679,gps,2,1,37.3651069,126.7242959,33.437,"(0.00019600000000000002, 0.0, 0.0, 0.0, 0.00019600000000000002, 0.0, 0.0, 0.0, 0.0001)",2
2022/03/21/14:41:03.520664,31825,1647841263,399967655,gps,2,1,37.365102,126.7242912,33.44,"(0.00019600000000000002, 0.0, 0.0, 0.0, 0.00019600000000000002, 0.0, 0.0, 0.0, 0.0001)",2
2022/03/21/14:41:03.623703,31826,1647841263,499967631,gps,2,1,37.365097,126.7242866,33.444,"(0.00019600000000000002, 0.0, 0.0, 0.0, 0.00019600000000000002, 0.0, 0.0, 0.0, 0.0001)",2
2022/03/21/14:41:03.716046,31827,1647841263,599967607,gps,2,1,37.3650921,126.7242819,33.442,"(0.00019600000000000002, 0.0, 0.0, 0.0, 0.00019600000000000002, 0.0, 0.0, 0.0, 0.0001)",2
2022/03/21/14:41:03.818005,31828,1647841263,699967583,gps,2,1,37.3650871,126.7242772,33.442,"(0.00019600000000000002, 0.0, 0.0, 0.0, 0.00019600000000000002, 0.0, 0.0, 0.0, 0.0001)",2
2022/03/21/14:41:03.917768,31829,1647841263,799967560,gps,2,1,37.3650822,126.7242725,33.444,"(0.00019600000000000002, 0.0, 0.0, 0.0, 0.00019600000000000002, 0.0, 0.0, 0.0, 0.0001)",2
2022/03/21/14:41:04.016495,31830,1647841263,899967536,gps,2,1,37.3650772,126.7242678,33.446,"(0.00019600000000000002, 0.0, 0.0, 0.0, 0.00019600000000000002, 0.0, 0.0, 0.0, 0.0001)",2
2022/03/21/14:41:04.117426,31831,1647841263,999967513,gps,2,1,37.3650722,126.724263,33.451,"(0.00019600000000000002, 0.0, 0.0, 0.0, 0.00019600000000000002, 0.0, 0.0, 0.0, 0.0001)",2
2022/03/21/14:41:04.218575,31832,1647841264,99967488,gps,2,1,37.3650671,126.7242583,33.453,"(0.00019600000000000002, 0.0, 0.0, 0.0, 0.00019600000000000002, 0.0, 0.0, 0.0, 0.0001)",2
2022/03/21/14:41:04.317223,31833,1647841264,199967464,gps,2,1,37.3650621,126.7242535,33.459,"(0.00019600000000000002, 0.0, 0.0, 0.0, 0.00019600000000000002, 0.0, 0.0, 0.0, 0.0001)",2
2022/03/21/14:41:04.418122,31834,1647841264,299967440,gps,2,1,37.3650571,126.7242487,33.46,"(0.00019600000000000002, 0.0, 0.0, 0.0, 0.00019600000000000002, 0.0, 0.0, 0.0, 0.0001)",2
2022/03/21/14:41:04.519829,31835,1647841264,399967416,gps,2,1,37.365052,126.7242439,33.463,"(0.00019600000000000002, 0.0, 0.0, 0.0, 0.00019600000000000002, 0.0, 0.0, 0.0, 0.0001)",2
2022/03/21/14:41:04.622960,31836,1647841264,499967392,gps,2,1,37.3650469,126.7242391,33.471,"(0.00019600000000000002, 0.0, 0.0, 0.0, 0.00019600000000000002, 0.0, 0.0, 0.0, 0.0001)",2
2022/03/21/14:41:04.717951,31837,1647841264,599967368,gps,2,1,37.3650418,126.7242343,33.477,"(0.00019600000000000002, 0.0, 0.0, 0.0, 0.00019600000000000002, 0.0, 0.0, 0.0, 0.0001)",2
2022/03/21/14:41:04.817160,31838,1647841264,699967344,gps,2,1,37.3650367,126.7242294,33.483,"(0.00019600000000000002, 0.0, 0.0, 0.0, 0.00019600000000000002, 0.0, 0.0, 0.0, 0.0001)",2
2022/03/21/14:41:04.916095,31839,1647841264,799967321,gps,2,1,37.3650315,126.7242245,33.489,"(0.00019600000000000002, 0.0, 0.0, 0.0, 0.00019600000000000002, 0.0, 0.0, 0.0, 0.0001)",2
2022/03/21/14:41:05.011635,31840,1647841264,899967297,gps,2,1,37.3650264,126.7242196,33.495,"(0.00019600000000000002, 0.0, 0.0, 0.0, 0.00019600000000000002, 0.0, 0.0, 0.0, 0.0001)",2
2022/03/21/14:41:05.120976,31841,1647841264,999967274,gps,2,1,37.3650212,126.7242148,33.503,"(0.00019600000000000002, 0.0, 0.0, 0.0, 0.00019600000000000002, 0.0, 0.0, 0.0, 0.0001)",2
2022/03/21/14:41:05.220348,31842,1647841265,99967249,gps,2,1,37.365016,126.7242099,33.505,"(0.00019600000000000002, 0.0, 0.0, 0.0, 0.00019600000000000002, 0.0, 0.0, 0.0, 0.0001)",2
2022/03/21/14:41:05.320287,31843,1647841265,199967225,gps,2,1,37.3650108,126.7242049,33.509,"(0.00019600000000000002, 0.0, 0.0, 0.0, 0.00019600000000000002, 0.0, 0.0, 0.0, 0.0001)",2
2022/03/21/14:41:05.419343,31844,1647841265,299967201,gps,2,1,37.3650056,126.7242,33.516,"(0.00019600000000000002, 0.0, 0.0, 0.0, 0.00019600000000000002, 0.0, 0.0, 0.0, 0.0001)",2
2022/03/21/14:41:05.516258,31845,1647841265,399967177,gps,2,1,37.3650004,126.7241951,33.52,"(0.00019600000000000002, 0.0, 0.0, 0.0, 0.00019600000000000002, 0.0, 0.0, 0.0, 0.0001)",2
2022/03/21/14:41:05.623888,31846,1647841265,499967153,gps,2,1,37.3649951,126.7241901,33.523,"(0.00019600000000000002, 0.0, 0.0, 0.0, 0.00019600000000000002, 0.0, 0.0, 0.0, 0.0001)",2
2022/03/21/14:41:05.717300,31847,1647841265,599967129,gps,2,1,37.3649899,126.7241851,33.525,"(0.00019600000000000002, 0.0, 0.0, 0.0, 0.00019600000000000002, 0.0, 0.0, 0.0, 0.0001)",2
2022/03/21/14:41:05.816770,31848,1647841265,699967106,gps,2,1,37.3649846,126.7241801,33.529,"(0.00019600000000000002, 0.0, 0.0, 0.0, 0.00019600000000000002, 0.0, 0.0, 0.0, 0.0001)",2
2022/03/21/14:41:05.912959,31849,1647841265,799967082,gps,2,1,37.3649794,126.7241751,33.531,"(0.00019600000000000002, 0.0, 0.0, 0.0, 0.00019600000000000002, 0.0, 0.0, 0.0, 0.0001)",2
2022/03/21/14:41:06.016503,31850,1647841265,899967058,gps,2,1,37.364974,126.7241701,33.536,"(0.00019600000000000002, 0.0, 0.0, 0.0, 0.00019600000000000002, 0.0, 0.0, 0.0, 0.0001)",2
2022/03/21/14:41:06.122114,31851,1647841265,999967035,gps,2,1,37.3649688,126.7241651,33.537,"(0.00019600000000000002, 0.0, 0.0, 0.0, 0.00019600000000000002, 0.0, 0.0, 0.0, 0.0001)",2
2022/03/21/14:41:06.218117,31852,1647841266,99967010,gps,2,1,37.3649634,126.72416,33.536,"(0.00019600000000000002, 0.0, 0.0, 0.0, 0.00019600000000000002, 0.0, 0.0, 0.0, 0.0001)",2
2022/03/21/14:41:06.319155,31853,1647841266,199966986,gps,2,1,37.3649581,126.724155,33.538,"(0.00019600000000000002, 0.0, 0.0, 0.0, 0.00019600000000000002, 0.0, 0.0, 0.0, 0.0001)",2
2022/03/21/14:41:06.415910,31854,1647841266,299966962,gps,2,1,37.3649528,126.7241499,33.538,"(0.00019600000000000002, 0.0, 0.0, 0.0, 0.00019600000000000002, 0.0, 0.0, 0.0, 0.0001)",2
2022/03/21/14:41:06.516941,31855,1647841266,399966938,gps,2,1,37.3649474,126.7241448,33.54,"(0.00019600000000000002, 0.0, 0.0, 0.0, 0.00019600000000000002, 0.0, 0.0, 0.0, 0.0001)",2
2022/03/21/14:41:06.624207,31856,1647841266,499966914,gps,2,1,37.3649421,126.7241397,33.539,"(0.00019600000000000002, 0.0, 0.0, 0.0, 0.00019600000000000002, 0.0, 0.0, 0.0, 0.0001)",2
2022/03/21/14:41:06.716122,31857,1647841266,599966890,gps,2,1,37.3649367,126.7241346,33.54,"(0.00019600000000000002, 0.0, 0.0, 0.0, 0.00019600000000000002, 0.0, 0.0, 0.0, 0.0001)",2
2022/03/21/14:41:06.813037,31858,1647841266,699966867,gps,2,1,37.3649313,126.7241295,33.543,"(0.00019600000000000002, 0.0, 0.0, 0.0, 0.00019600000000000002, 0.0, 0.0, 0.0, 0.0001)",2
2022/03/21/14:41:06.916973,31859,1647841266,799966843,gps,2,1,37.3649259,126.7241244,33.547,"(0.00019600000000000002, 0.0, 0.0, 0.0, 0.00019600000000000002, 0.0, 0.0, 0.0, 0.0001)",2
2022/03/21/14:41:07.016078,31860,1647841266,899966819,gps,2,1,37.3649205,126.7241193,33.551,"(0.00019600000000000002, 0.0, 0.0, 0.0, 0.00019600000000000002, 0.0, 0.0, 0.0, 0.0001)",2
2022/03/21/14:41:07.122919,31861,1647841266,999966796,gps,2,1,37.3649152,126.7241142,33.552,"(0.00019600000000000002, 0.0, 0.0, 0.0, 0.00019600000000000002, 0.0, 0.0, 0.0, 0.0001)",2
2022/03/21/14:41:07.218641,31862,1647841267,99966771,gps,2,1,37.3649098,126.7241091,33.558,"(0.00019600000000000002, 0.0, 0.0, 0.0, 0.00019600000000000002, 0.0, 0.0, 0.0, 0.0001)",2
2022/03/21/14:41:07.324254,31863,1647841267,199966747,gps,2,1,37.3649044,126.724104,33.562,"(0.00019600000000000002, 0.0, 0.0, 0.0, 0.00019600000000000002, 0.0, 0.0, 0.0, 0.0001)",2
2022/03/21/14:41:07.417800,31864,1647841267,299966723,gps,2,1,37.364899,126.7240989,33.558,"(0.00019600000000000002, 0.0, 0.0, 0.0, 0.00019600000000000002, 0.0, 0.0, 0.0, 0.0001)",2
2022/03/21/14:41:07.516754,31865,1647841267,399966699,gps,2,1,37.3648937,126.7240938,33.559,"(0.00019600000000000002, 0.0, 0.0, 0.0, 0.00019600000000000002, 0.0, 0.0, 0.0, 0.0001)",2
2022/03/21/14:41:07.615802,31866,1647841267,499966675,gps,2,1,37.3648883,126.7240887,33.56,"(0.00019600000000000002, 0.0, 0.0, 0.0, 0.00019600000000000002, 0.0, 0.0, 0.0, 0.0001)",2
2022/03/21/14:41:07.711293,31867,1647841267,599966651,gps,2,1,37.364883,126.7240837,33.563,"(0.00019600000000000002, 0.0, 0.0, 0.0, 0.00019600000000000002, 0.0, 0.0, 0.0, 0.0001)",2
2022/03/21/14:41:07.817022,31868,1647841267,699966627,gps,2,1,37.3648777,126.7240787,33.564,"(0.00019600000000000002, 0.0, 0.0, 0.0, 0.00019600000000000002, 0.0, 0.0, 0.0, 0.0001)",2
2022/03/21/14:41:07.915024,31869,1647841267,799966603,gps,2,1,37.3648725,126.7240737,33.566,"(0.00019600000000000002, 0.0, 0.0, 0.0, 0.00019600000000000002, 0.0, 0.0, 0.0, 0.0001)",2
2022/03/21/14:41:08.016463,31870,1647841267,899966579,gps,2,1,37.3648673,126.7240688,33.569,"(0.00019600000000000002, 0.0, 0.0, 0.0, 0.00019600000000000002, 0.0, 0.0, 0.0, 0.0001)",2
2022/03/21/14:41:08.121188,31871,1647841267,999966556,gps,2,1,37.3648621,126.7240639,33.566,"(0.00019600000000000002, 0.0, 0.0, 0.0, 0.00019600000000000002, 0.0, 0.0, 0.0, 0.0001)",2
2022/03/21/14:41:08.217031,31872,1647841268,99966531,gps,2,1,37.364857,126.7240591,33.568,"(0.00019600000000000002, 0.0, 0.0, 0.0, 0.00019600000000000002, 0.0, 0.0, 0.0, 0.0001)",2
2022/03/21/14:41:08.318765,31873,1647841268,199966508,gps,2,1,37.364852,126.7240542,33.569,"(0.00019600000000000002, 0.0, 0.0, 0.0, 0.00019600000000000002, 0.0, 0.0, 0.0, 0.0001)",2
2022/03/21/14:41:08.418932,31874,1647841268,299966484,gps,2,1,37.3648469,126.7240495,33.57,"(0.00019600000000000002, 0.0, 0.0, 0.0, 0.00019600000000000002, 0.0, 0.0, 0.0, 0.0001)",2
2022/03/21/14:41:08.519393,31875,1647841268,399966460,gps,2,1,37.3648419,126.7240447,33.571,"(0.00019600000000000002, 0.0, 0.0, 0.0, 0.00019600000000000002, 0.0, 0.0, 0.0, 0.0001)",2
2022/03/21/14:41:08.618139,31876,1647841268,499966436,gps,2,1,37.364837,126.72404,33.572,"(0.00019600000000000002, 0.0, 0.0, 0.0, 0.00019600000000000002, 0.0, 0.0, 0.0, 0.0001)",2
2022/03/21/14:41:08.717826,31877,1647841268,599966412,gps,2,1,37.364832,126.7240354,33.575,"(0.00019600000000000002, 0.0, 0.0, 0.0, 0.00019600000000000002, 0.0, 0.0, 0.0, 0.0001)",2
2022/03/21/14:41:08.816693,31878,1647841268,699966388,gps,2,1,37.3648272,126.7240308,33.575,"(0.00019600000000000002, 0.0, 0.0, 0.0, 0.00019600000000000002, 0.0, 0.0, 0.0, 0.0001)",2
2022/03/21/14:41:08.917182,31879,1647841268,799966364,gps,2,1,37.3648223,126.7240262,33.574,"(0.00019600000000000002, 0.0, 0.0, 0.0, 0.00019600000000000002, 0.0, 0.0, 0.0, 0.0001)",2
2022/03/21/14:41:09.016774,31880,1647841268,899966340,gps,2,1,37.3648175,126.7240216,33.575,"(0.00019600000000000002, 0.0, 0.0, 0.0, 0.00019600000000000002, 0.0, 0.0, 0.0, 0.0001)",2
2022/03/21/14:41:09.119127,31881,1647841268,999966317,gps,2,1,37.3648128,126.7240171,33.576,"(0.00019600000000000002, 0.0, 0.0, 0.0, 0.00019600000000000002, 0.0, 0.0, 0.0, 0.0001)",2
2022/03/21/14:41:09.221101,31882,1647841269,99966292,gps,2,1,37.3648081,126.7240126,33.577,"(0.00019600000000000002, 0.0, 0.0, 0.0, 0.00019600000000000002, 0.0, 0.0, 0.0, 0.0001)",2
2022/03/21/14:41:09.316640,31883,1647841269,199966268,gps,2,1,37.3648034,126.7240082,33.577,"(0.00019600000000000002, 0.0, 0.0, 0.0, 0.00019600000000000002, 0.0, 0.0, 0.0, 0.0001)",2
2022/03/21/14:41:09.417213,31884,1647841269,299966244,gps,2,1,37.3647988,126.7240038,33.58,"(0.00019600000000000002, 0.0, 0.0, 0.0, 0.00019600000000000002, 0.0, 0.0, 0.0, 0.0001)",2
2022/03/21/14:41:09.511191,31885,1647841269,399966220,gps,2,1,37.3647942,126.7239994,33.581,"(0.00019600000000000002, 0.0, 0.0, 0.0, 0.00019600000000000002, 0.0, 0.0, 0.0, 0.0001)",2
2022/03/21/14:41:09.622116,31886,1647841269,499966196,gps,2,1,37.3647896,126.7239951,33.582,"(0.00019600000000000002, 0.0, 0.0, 0.0, 0.00019600000000000002, 0.0, 0.0, 0.0, 0.0001)",2
2022/03/21/14:41:09.715125,31887,1647841269,599966173,gps,2,1,37.3647851,126.7239908,33.582,"(0.00019600000000000002, 0.0, 0.0, 0.0, 0.00019600000000000002, 0.0, 0.0, 0.0, 0.0001)",2
2022/03/21/14:41:09.816984,31888,1647841269,699966149,gps,2,1,37.3647806,126.7239865,33.587,"(0.00019600000000000002, 0.0, 0.0, 0.0, 0.00019600000000000002, 0.0, 0.0, 0.0, 0.0001)",2
2022/03/21/14:41:09.915209,31889,1647841269,799966125,gps,2,1,37.3647762,126.7239824,33.588,"(0.00019600000000000002, 0.0, 0.0, 0.0, 0.00019600000000000002, 0.0, 0.0, 0.0, 0.0001)",2
2022/03/21/14:41:10.014240,31890,1647841269,899966101,gps,2,1,37.3647718,126.7239782,33.59,"(0.00019600000000000002, 0.0, 0.0, 0.0, 0.00019600000000000002, 0.0, 0.0, 0.0, 0.0001)",2
2022/03/21/14:41:10.120430,31891,1647841269,999966078,gps,2,1,37.3647675,126.723974,33.59,"(0.00019600000000000002, 0.0, 0.0, 0.0, 0.00019600000000000002, 0.0, 0.0, 0.0, 0.0001)",2
2022/03/21/14:41:10.230167,31892,1647841270,99966053,gps,2,1,37.3647631,126.7239699,33.598,"(0.00019600000000000002, 0.0, 0.0, 0.0, 0.00019600000000000002, 0.0, 0.0, 0.0, 0.0001)",2
2022/03/21/14:41:10.323429,31893,1647841270,199966029,gps,2,1,37.3647588,126.7239658,33.597,"(0.00019600000000000002, 0.0, 0.0, 0.0, 0.00019600000000000002, 0.0, 0.0, 0.0, 0.0001)",2
2022/03/21/14:41:10.412179,31894,1647841270,299966005,gps,2,1,37.3647546,126.7239618,33.591,"(0.00019600000000000002, 0.0, 0.0, 0.0, 0.00019600000000000002, 0.0, 0.0, 0.0, 0.0001)",2
2022/03/21/14:41:10.515439,31895,1647841270,399965981,gps,2,1,37.3647503,126.7239579,33.597,"(0.00019600000000000002, 0.0, 0.0, 0.0, 0.00019600000000000002, 0.0, 0.0, 0.0, 0.0001)",2
2022/03/21/14:41:10.615063,31896,1647841270,499965957,gps,2,1,37.3647462,126.723954,33.602,"(0.00019600000000000002, 0.0, 0.0, 0.0, 0.00019600000000000002, 0.0, 0.0, 0.0, 0.0001)",2
2022/03/21/14:41:10.716544,31897,1647841270,599965933,gps,2,1,37.3647421,126.7239502,33.599,"(0.00019600000000000002, 0.0, 0.0, 0.0, 0.00019600000000000002, 0.0, 0.0, 0.0, 0.0001)",2
2022/03/21/14:41:10.816328,31898,1647841270,699965909,gps,2,1,37.3647379,126.7239464,33.599,"(0.00019600000000000002, 0.0, 0.0, 0.0, 0.00019600000000000002, 0.0, 0.0, 0.0, 0.0001)",2
2022/03/21/14:41:10.914403,31899,1647841270,799965885,gps,2,1,37.3647338,126.7239427,33.603,"(0.00019600000000000002, 0.0, 0.0, 0.0, 0.00019600000000000002, 0.0, 0.0, 0.0, 0.0001)",2
2022/03/21/14:41:11.015491,31900,1647841270,899965861,gps,2,1,37.3647297,126.7239391,33.608,"(0.00019600000000000002, 0.0, 0.0, 0.0, 0.00019600000000000002, 0.0, 0.0, 0.0, 0.0001)",2
2022/03/21/14:41:11.121165,31901,1647841270,999965839,gps,2,1,37.3647255,126.7239356,33.614,"(0.00019600000000000002, 0.0, 0.0, 0.0, 0.00019600000000000002, 0.0, 0.0, 0.0, 0.0001)",2
2022/03/21/14:41:11.216502,31902,1647841271,99965814,gps,2,1,37.3647214,126.7239321,33.617,"(0.00019600000000000002, 0.0, 0.0, 0.0, 0.00019600000000000002, 0.0, 0.0, 0.0, 0.0001)",2
2022/03/21/14:41:11.320771,31903,1647841271,199965790,gps,2,1,37.3647173,126.7239288,33.623,"(0.00019600000000000002, 0.0, 0.0, 0.0, 0.00019600000000000002, 0.0, 0.0, 0.0, 0.0001)",2
2022/03/21/14:41:11.416793,31904,1647841271,299965766,gps,2,1,37.3647131,126.7239256,33.626,"(0.00019600000000000002, 0.0, 0.0, 0.0, 0.00019600000000000002, 0.0, 0.0, 0.0, 0.0001)",2
2022/03/21/14:41:11.514945,31905,1647841271,399965742,gps,2,1,37.3647089,126.7239225,33.633,"(0.00019600000000000002, 0.0, 0.0, 0.0, 0.00019600000000000002, 0.0, 0.0, 0.0, 0.0001)",2
2022/03/21/14:41:11.616453,31906,1647841271,499965718,gps,2,1,37.3647048,126.7239196,33.639,"(0.00019600000000000002, 0.0, 0.0, 0.0, 0.00019600000000000002, 0.0, 0.0, 0.0, 0.0001)",2
2022/03/21/14:41:11.716451,31907,1647841271,599965694,gps,2,1,37.3647006,126.7239168,33.645,"(0.00019600000000000002, 0.0, 0.0, 0.0, 0.00019600000000000002, 0.0, 0.0, 0.0, 0.0001)",2
2022/03/21/14:41:11.815142,31908,1647841271,699965670,gps,2,1,37.3646963,126.7239142,33.651,"(0.00019600000000000002, 0.0, 0.0, 0.0, 0.00019600000000000002, 0.0, 0.0, 0.0, 0.0001)",2
2022/03/21/14:41:11.915432,31909,1647841271,799965646,gps,2,1,37.3646921,126.7239117,33.657,"(0.00019600000000000002, 0.0, 0.0, 0.0, 0.00019600000000000002, 0.0, 0.0, 0.0, 0.0001)",2
2022/03/21/14:41:12.014944,31910,1647841271,899965622,gps,2,1,37.3646878,126.7239094,33.663,"(0.00019600000000000002, 0.0, 0.0, 0.0, 0.00019600000000000002, 0.0, 0.0, 0.0, 0.0001)",2
2022/03/21/14:41:12.119508,31911,1647841271,999965599,gps,2,1,37.3646835,126.7239073,33.673,"(0.00019600000000000002, 0.0, 0.0, 0.0, 0.00019600000000000002, 0.0, 0.0, 0.0, 0.0001)",2
2022/03/21/14:41:12.219028,31912,1647841272,99965574,gps,2,1,37.3646792,126.7239053,33.674,"(0.00019600000000000002, 0.0, 0.0, 0.0, 0.00019600000000000002, 0.0, 0.0, 0.0, 0.0001)",2
2022/03/21/14:41:12.317406,31913,1647841272,199965550,gps,2,1,37.3646749,126.7239037,33.677,"(0.00019600000000000002, 0.0, 0.0, 0.0, 0.00019600000000000002, 0.0, 0.0, 0.0, 0.0001)",2
2022/03/21/14:41:12.420167,31914,1647841272,299965526,gps,2,1,37.3646705,126.7239022,33.686,"(0.00019600000000000002, 0.0, 0.0, 0.0, 0.00019600000000000002, 0.0, 0.0, 0.0, 0.0001)",2
2022/03/21/14:41:12.517282,31915,1647841272,399965502,gps,2,1,37.3646661,126.7239009,33.694,"(0.00019600000000000002, 0.0, 0.0, 0.0, 0.00019600000000000002, 0.0, 0.0, 0.0, 0.0001)",2
2022/03/21/14:41:12.622351,31916,1647841272,499965479,gps,2,1,37.3646618,126.7238999,33.697,"(0.00019600000000000002, 0.0, 0.0, 0.0, 0.00019600000000000002, 0.0, 0.0, 0.0, 0.0001)",2
2022/03/21/14:41:12.715316,31917,1647841272,599965455,gps,2,1,37.3646574,126.723899,33.707,"(0.00019600000000000002, 0.0, 0.0, 0.0, 0.00019600000000000002, 0.0, 0.0, 0.0, 0.0001)",2
2022/03/21/14:41:12.817265,31918,1647841272,699965431,gps,2,1,37.3646531,126.7238983,33.711,"(0.00019600000000000002, 0.0, 0.0, 0.0, 0.00019600000000000002, 0.0, 0.0, 0.0, 0.0001)",2
2022/03/21/14:41:12.916765,31919,1647841272,799965407,gps,2,1,37.3646488,126.7238978,33.714,"(0.00019600000000000002, 0.0, 0.0, 0.0, 0.00019600000000000002, 0.0, 0.0, 0.0, 0.0001)",2
2022/03/21/14:41:13.014221,31920,1647841272,899965383,gps,2,1,37.3646445,126.7238975,33.715,"(0.00019600000000000002, 0.0, 0.0, 0.0, 0.00019600000000000002, 0.0, 0.0, 0.0, 0.0001)",2
2022/03/21/14:41:13.114365,31921,1647841272,999965360,gps,2,1,37.3646401,126.7238974,33.717,"(0.00019600000000000002, 0.0, 0.0, 0.0, 0.00019600000000000002, 0.0, 0.0, 0.0, 0.0001)",2
2022/03/21/14:41:13.218184,31922,1647841273,99965335,gps,2,1,37.3646359,126.7238975,33.719,"(0.00019600000000000002, 0.0, 0.0, 0.0, 0.00019600000000000002, 0.0, 0.0, 0.0, 0.0001)",2
2022/03/21/14:41:13.318037,31923,1647841273,199965311,gps,2,1,37.3646316,126.7238977,33.727,"(0.00019600000000000002, 0.0, 0.0, 0.0, 0.00019600000000000002, 0.0, 0.0, 0.0, 0.0001)",2
2022/03/21/14:41:13.416093,31924,1647841273,299965287,gps,2,1,37.3646274,126.7238982,33.726,"(0.00019600000000000002, 0.0, 0.0, 0.0, 0.00019600000000000002, 0.0, 0.0, 0.0, 0.0001)",2
2022/03/21/14:41:13.515247,31925,1647841273,399965263,gps,2,1,37.3646231,126.7238989,33.724,"(0.00019600000000000002, 0.0, 0.0, 0.0, 0.00019600000000000002, 0.0, 0.0, 0.0, 0.0001)",2
2022/03/21/14:41:13.615217,31926,1647841273,499965239,gps,2,1,37.364619,126.7238998,33.725,"(0.00019600000000000002, 0.0, 0.0, 0.0, 0.00019600000000000002, 0.0, 0.0, 0.0, 0.0001)",2
2022/03/21/14:41:13.716470,31927,1647841273,599965215,gps,2,1,37.3646148,126.7239009,33.728,"(0.00019600000000000002, 0.0, 0.0, 0.0, 0.00019600000000000002, 0.0, 0.0, 0.0, 0.0001)",2
2022/03/21/14:41:13.816147,31928,1647841273,699965191,gps,2,1,37.3646107,126.7239022,33.731,"(0.00019600000000000002, 0.0, 0.0, 0.0, 0.00019600000000000002, 0.0, 0.0, 0.0, 0.0001)",2
2022/03/21/14:41:13.915063,31929,1647841273,799965167,gps,2,1,37.3646067,126.7239037,33.731,"(0.00019600000000000002, 0.0, 0.0, 0.0, 0.00019600000000000002, 0.0, 0.0, 0.0, 0.0001)",2
2022/03/21/14:41:14.011333,31930,1647841273,899965143,gps,2,1,37.3646027,126.7239053,33.729,"(0.00019600000000000002, 0.0, 0.0, 0.0, 0.00019600000000000002, 0.0, 0.0, 0.0, 0.0001)",2
2022/03/21/14:41:14.119380,31931,1647841273,999965120,gps,2,1,37.3645988,126.7239072,33.728,"(0.00019600000000000002, 0.0, 0.0, 0.0, 0.00019600000000000002, 0.0, 0.0, 0.0, 0.0001)",2
2022/03/21/14:41:14.222422,31932,1647841274,99965095,gps,2,1,37.364595,126.7239092,33.724,"(0.00019600000000000002, 0.0, 0.0, 0.0, 0.00019600000000000002, 0.0, 0.0, 0.0, 0.0001)",2
2022/03/21/14:41:14.317201,31933,1647841274,199965071,gps,2,1,37.3645912,126.7239115,33.725,"(0.00019600000000000002, 0.0, 0.0, 0.0, 0.00019600000000000002, 0.0, 0.0, 0.0, 0.0001)",2
2022/03/21/14:41:14.419357,31934,1647841274,299965047,gps,2,1,37.3645875,126.7239139,33.723,"(0.00019600000000000002, 0.0, 0.0, 0.0, 0.00019600000000000002, 0.0, 0.0, 0.0, 0.0001)",2
2022/03/21/14:41:14.514528,31935,1647841274,399965023,gps,2,1,37.3645838,126.7239165,33.722,"(0.00019600000000000002, 0.0, 0.0, 0.0, 0.00019600000000000002, 0.0, 0.0, 0.0, 0.0001)",2
2022/03/21/14:41:14.622246,31936,1647841274,499964999,gps,2,1,37.3645803,126.7239193,33.715,"(0.00019600000000000002, 0.0, 0.0, 0.0, 0.00019600000000000002, 0.0, 0.0, 0.0, 0.0001)",2
2022/03/21/14:41:14.716447,31937,1647841274,599964976,gps,2,1,37.3645769,126.7239221,33.712,"(0.00019600000000000002, 0.0, 0.0, 0.0, 0.00019600000000000002, 0.0, 0.0, 0.0, 0.0001)",2
2022/03/21/14:41:14.815336,31938,1647841274,699964952,gps,2,1,37.3645735,126.7239252,33.707,"(0.00019600000000000002, 0.0, 0.0, 0.0, 0.00019600000000000002, 0.0, 0.0, 0.0, 0.0001)",2
2022/03/21/14:41:14.911197,31939,1647841274,799964928,gps,2,1,37.3645702,126.7239284,33.7,"(0.00019600000000000002, 0.0, 0.0, 0.0, 0.00019600000000000002, 0.0, 0.0, 0.0, 0.0001)",2
2022/03/21/14:41:15.015625,31940,1647841274,899964904,gps,2,1,37.3645669,126.7239317,33.7,"(0.00019600000000000002, 0.0, 0.0, 0.0, 0.00019600000000000002, 0.0, 0.0, 0.0, 0.0001)",2
2022/03/21/14:41:15.119287,31941,1647841274,999964881,gps,2,1,37.3645638,126.7239351,33.696,"(0.00019600000000000002, 0.0, 0.0, 0.0, 0.00019600000000000002, 0.0, 0.0, 0.0, 0.0001)",2
2022/03/21/14:41:15.224196,31942,1647841275,99964856,gps,2,1,37.3645607,126.7239386,33.696,"(0.00019600000000000002, 0.0, 0.0, 0.0, 0.00019600000000000002, 0.0, 0.0, 0.0, 0.0001)",2
2022/03/21/14:41:15.316973,31943,1647841275,199964832,gps,2,1,37.3645577,126.7239422,33.698,"(0.00019600000000000002, 0.0, 0.0, 0.0, 0.00019600000000000002, 0.0, 0.0, 0.0, 0.0001)",2
2022/03/21/14:41:15.415025,31944,1647841275,299964808,gps,2,1,37.3645547,126.7239459,33.692,"(0.00019600000000000002, 0.0, 0.0, 0.0, 0.00019600000000000002, 0.0, 0.0, 0.0, 0.0001)",2
2022/03/21/14:41:15.516456,31945,1647841275,399964784,gps,2,1,37.3645518,126.7239497,33.69,"(0.00019600000000000002, 0.0, 0.0, 0.0, 0.00019600000000000002, 0.0, 0.0, 0.0, 0.0001)",2
2022/03/21/14:41:15.621367,31946,1647841275,499964760,gps,2,1,37.3645488,126.7239535,33.694,"(0.00019600000000000002, 0.0, 0.0, 0.0, 0.00019600000000000002, 0.0, 0.0, 0.0, 0.0001)",2
2022/03/21/14:41:15.715167,31947,1647841275,599964736,gps,2,1,37.364546,126.7239574,33.698,"(0.00019600000000000002, 0.0, 0.0, 0.0, 0.00019600000000000002, 0.0, 0.0, 0.0, 0.0001)",2
2022/03/21/14:41:15.812118,31948,1647841275,699964712,gps,2,1,37.3645433,126.7239614,33.689,"(0.00019600000000000002, 0.0, 0.0, 0.0, 0.00019600000000000002, 0.0, 0.0, 0.0, 0.0001)",2
2022/03/21/14:41:15.914384,31949,1647841275,799964688,gps,2,1,37.3645405,126.7239654,33.687,"(0.00019600000000000002, 0.0, 0.0, 0.0, 0.00019600000000000002, 0.0, 0.0, 0.0, 0.0001)",2
2022/03/21/14:41:16.013444,31950,1647841275,899964664,gps,2,1,37.3645378,126.7239696,33.686,"(0.00019600000000000002, 0.0, 0.0, 0.0, 0.00019600000000000002, 0.0, 0.0, 0.0, 0.0001)",2
2022/03/21/14:41:16.120596,31951,1647841275,999964641,gps,2,1,37.3645351,126.7239737,33.681,"(0.00019600000000000002, 0.0, 0.0, 0.0, 0.00019600000000000002, 0.0, 0.0, 0.0, 0.0001)",2
2022/03/21/14:41:16.220590,31952,1647841276,99964616,gps,2,1,37.3645325,126.7239779,33.682,"(0.00019600000000000002, 0.0, 0.0, 0.0, 0.00019600000000000002, 0.0, 0.0, 0.0, 0.0001)",2
2022/03/21/14:41:16.315402,31953,1647841276,199964592,gps,2,1,37.3645299,126.7239821,33.684,"(0.00019600000000000002, 0.0, 0.0, 0.0, 0.00019600000000000002, 0.0, 0.0, 0.0, 0.0001)",2
2022/03/21/14:41:16.416491,31954,1647841276,299964568,gps,2,1,37.3645272,126.7239864,33.684,"(0.00019600000000000002, 0.0, 0.0, 0.0, 0.00019600000000000002, 0.0, 0.0, 0.0, 0.0001)",2
2022/03/21/14:41:16.517246,31955,1647841276,399964545,gps,2,1,37.3645246,126.7239907,33.685,"(0.00019600000000000002, 0.0, 0.0, 0.0, 0.00019600000000000002, 0.0, 0.0, 0.0, 0.0001)",2
2022/03/21/14:41:16.624207,31956,1647841276,499964521,gps,2,1,37.3645219,126.7239951,33.68,"(0.00019600000000000002, 0.0, 0.0, 0.0, 0.00019600000000000002, 0.0, 0.0, 0.0, 0.0001)",2
2022/03/21/14:41:16.711501,31957,1647841276,599964497,gps,2,1,37.3645194,126.7239994,33.677,"(0.00019600000000000002, 0.0, 0.0, 0.0, 0.00019600000000000002, 0.0, 0.0, 0.0, 0.0001)",2
2022/03/21/14:41:16.815598,31958,1647841276,699964473,gps,2,1,37.3645167,126.7240039,33.675,"(0.00019600000000000002, 0.0, 0.0, 0.0, 0.00019600000000000002, 0.0, 0.0, 0.0, 0.0001)",2
2022/03/21/14:41:16.914610,31959,1647841276,799964449,gps,2,1,37.3645141,126.7240083,33.671,"(0.00019600000000000002, 0.0, 0.0, 0.0, 0.00019600000000000002, 0.0, 0.0, 0.0, 0.0001)",2
2022/03/21/14:41:17.016246,31960,1647841276,899964425,gps,2,1,37.3645115,126.7240127,33.673,"(0.00019600000000000002, 0.0, 0.0, 0.0, 0.00019600000000000002, 0.0, 0.0, 0.0, 0.0001)",2
2022/03/21/14:41:17.120592,31961,1647841276,999964402,gps,2,1,37.3645089,126.7240172,33.675,"(0.00019600000000000002, 0.0, 0.0, 0.0, 0.00019600000000000002, 0.0, 0.0, 0.0, 0.0001)",2
2022/03/21/14:41:17.216223,31962,1647841277,99964377,gps,2,1,37.3645063,126.7240218,33.664,"(0.00019600000000000002, 0.0, 0.0, 0.0, 0.00019600000000000002, 0.0, 0.0, 0.0, 0.0001)",2
2022/03/21/14:41:17.318088,31963,1647841277,199964354,gps,2,1,37.3645036,126.7240263,33.667,"(0.00019600000000000002, 0.0, 0.0, 0.0, 0.00019600000000000002, 0.0, 0.0, 0.0, 0.0001)",2
2022/03/21/14:41:17.416581,31964,1647841277,299964330,gps,2,1,37.3645009,126.7240308,33.675,"(0.00019600000000000002, 0.0, 0.0, 0.0, 0.00019600000000000002, 0.0, 0.0, 0.0, 0.0001)",2
2022/03/21/14:41:17.517395,31965,1647841277,399964306,gps,2,1,37.3644982,126.7240354,33.673,"(0.00019600000000000002, 0.0, 0.0, 0.0, 0.00019600000000000002, 0.0, 0.0, 0.0, 0.0001)",2
2022/03/21/14:41:17.617217,31966,1647841277,499964282,gps,2,1,37.3644956,126.7240401,33.66,"(0.00019600000000000002, 0.0, 0.0, 0.0, 0.00019600000000000002, 0.0, 0.0, 0.0, 0.0001)",2
2022/03/21/14:41:17.716552,31967,1647841277,599964258,gps,2,1,37.3644928,126.7240446,33.667,"(0.00019600000000000002, 0.0, 0.0, 0.0, 0.00019600000000000002, 0.0, 0.0, 0.0, 0.0001)",2
2022/03/21/14:41:17.815242,31968,1647841277,699964234,gps,2,1,37.3644901,126.7240493,33.665,"(0.00019600000000000002, 0.0, 0.0, 0.0, 0.00019600000000000002, 0.0, 0.0, 0.0, 0.0001)",2
2022/03/21/14:41:17.915750,31969,1647841277,799964210,gps,2,1,37.3644874,126.7240539,33.661,"(0.00019600000000000002, 0.0, 0.0, 0.0, 0.00019600000000000002, 0.0, 0.0, 0.0, 0.0001)",2
2022/03/21/14:41:18.015196,31970,1647841277,899964186,gps,2,1,37.3644847,126.7240585,33.662,"(0.00019600000000000002, 0.0, 0.0, 0.0, 0.00019600000000000002, 0.0, 0.0, 0.0, 0.0001)",2
2022/03/21/14:41:18.119434,31971,1647841277,999964163,gps,2,1,37.3644819,126.7240631,33.663,"(0.00019600000000000002, 0.0, 0.0, 0.0, 0.00019600000000000002, 0.0, 0.0, 0.0, 0.0001)",2
2022/03/21/14:41:18.226477,31972,1647841278,99964138,gps,2,1,37.3644792,126.7240678,33.663,"(0.00019600000000000002, 0.0, 0.0, 0.0, 0.00019600000000000002, 0.0, 0.0, 0.0, 0.0001)",2
2022/03/21/14:41:18.318847,31973,1647841278,199964114,gps,2,1,37.3644764,126.7240723,33.662,"(0.00019600000000000002, 0.0, 0.0, 0.0, 0.00019600000000000002, 0.0, 0.0, 0.0, 0.0001)",2
2022/03/21/14:41:18.415023,31974,1647841278,299964090,gps,2,1,37.3644736,126.7240769,33.664,"(0.00019600000000000002, 0.0, 0.0, 0.0, 0.00019600000000000002, 0.0, 0.0, 0.0, 0.0001)",2
2022/03/21/14:41:18.621627,31975,1647841278,499964043,gps,2,1,37.3644679,126.7240859,33.664,"(0.00019600000000000002, 0.0, 0.0, 0.0, 0.00019600000000000002, 0.0, 0.0, 0.0, 0.0001)",2
2022/03/21/14:41:18.715114,31976,1647841278,599964019,gps,2,1,37.364465,126.7240904,33.67,"(0.00019600000000000002, 0.0, 0.0, 0.0, 0.00019600000000000002, 0.0, 0.0, 0.0, 0.0001)",2
2022/03/21/14:41:18.817168,31977,1647841278,699963995,gps,2,1,37.3644621,126.7240948,33.673,"(0.00019600000000000002, 0.0, 0.0, 0.0, 0.00019600000000000002, 0.0, 0.0, 0.0, 0.0001)",2
2022/03/21/14:41:18.915410,31978,1647841278,799963971,gps,2,1,37.3644592,126.7240991,33.676,"(0.00019600000000000002, 0.0, 0.0, 0.0, 0.00019600000000000002, 0.0, 0.0, 0.0, 0.0001)",2
2022/03/21/14:41:19.014387,31979,1647841278,899963947,gps,2,1,37.3644562,126.7241034,33.68,"(0.00019600000000000002, 0.0, 0.0, 0.0, 0.00019600000000000002, 0.0, 0.0, 0.0, 0.0001)",2
2022/03/21/14:41:19.119605,31980,1647841278,999963924,gps,2,1,37.3644533,126.7241076,33.68,"(0.00019600000000000002, 0.0, 0.0, 0.0, 0.00019600000000000002, 0.0, 0.0, 0.0, 0.0001)",2
2022/03/21/14:41:19.223490,31981,1647841279,99963899,gps,2,1,37.3644503,126.7241117,33.682,"(0.00019600000000000002, 0.0, 0.0, 0.0, 0.00019600000000000002, 0.0, 0.0, 0.0, 0.0001)",2
2022/03/21/14:41:19.317466,31982,1647841279,199963875,gps,2,1,37.3644473,126.7241157,33.684,"(0.00019600000000000002, 0.0, 0.0, 0.0, 0.00019600000000000002, 0.0, 0.0, 0.0, 0.0001)",2
2022/03/21/14:41:19.414841,31983,1647841279,299963851,gps,2,1,37.3644442,126.7241196,33.685,"(0.00019600000000000002, 0.0, 0.0, 0.0, 0.00019600000000000002, 0.0, 0.0, 0.0, 0.0001)",2
2022/03/21/14:41:19.515295,31984,1647841279,399963827,gps,2,1,37.3644412,126.7241234,33.684,"(0.00019600000000000002, 0.0, 0.0, 0.0, 0.00019600000000000002, 0.0, 0.0, 0.0, 0.0001)",2
2022/03/21/14:41:19.620550,31985,1647841279,499963803,gps,2,1,37.3644381,126.7241271,33.683,"(0.00019600000000000002, 0.0, 0.0, 0.0, 0.00019600000000000002, 0.0, 0.0, 0.0, 0.0001)",2
2022/03/21/14:41:19.717304,31986,1647841279,599963779,gps,2,1,37.3644349,126.7241307,33.685,"(0.00019600000000000002, 0.0, 0.0, 0.0, 0.00019600000000000002, 0.0, 0.0, 0.0, 0.0001)",2
2022/03/21/14:41:19.815576,31987,1647841279,699963755,gps,2,1,37.3644317,126.7241342,33.684,"(0.00019600000000000002, 0.0, 0.0, 0.0, 0.00019600000000000002, 0.0, 0.0, 0.0, 0.0001)",2
2022/03/21/14:41:19.913847,31988,1647841279,799963731,gps,2,1,37.3644285,126.7241375,33.682,"(0.00019600000000000002, 0.0, 0.0, 0.0, 0.00019600000000000002, 0.0, 0.0, 0.0, 0.0001)",2
2022/03/21/14:41:20.015282,31989,1647841279,899963707,gps,2,1,37.3644252,126.7241407,33.682,"(0.00019600000000000002, 0.0, 0.0, 0.0, 0.00019600000000000002, 0.0, 0.0, 0.0, 0.0001)",2
2022/03/21/14:41:20.119305,31990,1647841279,999963684,gps,2,1,37.3644219,126.7241438,33.682,"(0.00019600000000000002, 0.0, 0.0, 0.0, 0.00019600000000000002, 0.0, 0.0, 0.0, 0.0001)",2
2022/03/21/14:41:20.225834,31991,1647841280,99963660,gps,2,1,37.3644186,126.7241467,33.681,"(0.00019600000000000002, 0.0, 0.0, 0.0, 0.00019600000000000002, 0.0, 0.0, 0.0, 0.0001)",2
2022/03/21/14:41:20.315280,31992,1647841280,199963636,gps,2,1,37.3644152,126.7241495,33.676,"(0.00019600000000000002, 0.0, 0.0, 0.0, 0.00019600000000000002, 0.0, 0.0, 0.0, 0.0001)",2
2022/03/21/14:41:20.420522,31993,1647841280,299963612,gps,2,1,37.3644118,126.7241522,33.676,"(0.00019600000000000002, 0.0, 0.0, 0.0, 0.00019600000000000002, 0.0, 0.0, 0.0, 0.0001)",2
2022/03/21/14:41:20.515187,31994,1647841280,399963588,gps,2,1,37.3644084,126.7241547,33.677,"(0.00019600000000000002, 0.0, 0.0, 0.0, 0.00019600000000000002, 0.0, 0.0, 0.0, 0.0001)",2
2022/03/21/14:41:20.623529,31995,1647841280,499963564,gps,2,1,37.364405,126.7241572,33.675,"(0.00019600000000000002, 0.0, 0.0, 0.0, 0.00019600000000000002, 0.0, 0.0, 0.0, 0.0001)",2
2022/03/21/14:41:20.715788,31996,1647841280,599963540,gps,2,1,37.3644014,126.7241595,33.676,"(0.00019600000000000002, 0.0, 0.0, 0.0, 0.00019600000000000002, 0.0, 0.0, 0.0, 0.0001)",2
2022/03/21/14:41:20.814543,31997,1647841280,699963516,gps,2,1,37.3643978,126.7241616,33.673,"(0.00019600000000000002, 0.0, 0.0, 0.0, 0.00019600000000000002, 0.0, 0.0, 0.0, 0.0001)",2
2022/03/21/14:41:20.915679,31998,1647841280,799963492,gps,2,1,37.3643942,126.7241635,33.673,"(0.00019600000000000002, 0.0, 0.0, 0.0, 0.00019600000000000002, 0.0, 0.0, 0.0, 0.0001)",2
2022/03/21/14:41:21.015324,31999,1647841280,899963468,gps,2,1,37.3643904,126.7241654,33.672,"(0.00019600000000000002, 0.0, 0.0, 0.0, 0.00019600000000000002, 0.0, 0.0, 0.0, 0.0001)",2
2022/03/21/14:41:21.119143,32000,1647841280,999963445,gps,2,1,37.3643867,126.7241671,33.672,"(0.00019600000000000002, 0.0, 0.0, 0.0, 0.00019600000000000002, 0.0, 0.0, 0.0, 0.0001)",2
2022/03/21/14:41:21.215216,32001,1647841281,99963420,gps,2,1,37.3643829,126.7241686,33.67,"(0.00019600000000000002, 0.0, 0.0, 0.0, 0.00019600000000000002, 0.0, 0.0, 0.0, 0.0001)",2
2022/03/21/14:41:21.326525,32002,1647841281,199963396,gps,2,1,37.3643791,126.7241701,33.67,"(0.00019600000000000002, 0.0, 0.0, 0.0, 0.00019600000000000002, 0.0, 0.0, 0.0, 0.0001)",2
2022/03/21/14:41:21.415422,32003,1647841281,299963373,gps,2,1,37.3643753,126.7241713,33.658,"(0.00019600000000000002, 0.0, 0.0, 0.0, 0.00019600000000000002, 0.0, 0.0, 0.0, 0.0001)",2
2022/03/21/14:41:21.515592,32004,1647841281,399963349,gps,2,1,37.3643714,126.7241725,33.651,"(0.00019600000000000002, 0.0, 0.0, 0.0, 0.00019600000000000002, 0.0, 0.0, 0.0, 0.0001)",2
2022/03/21/14:41:21.615675,32005,1647841281,499963325,gps,2,1,37.3643675,126.7241735,33.643,"(0.00019600000000000002, 0.0, 0.0, 0.0, 0.00019600000000000002, 0.0, 0.0, 0.0, 0.0001)",2
2022/03/21/14:41:21.715581,32006,1647841281,599963301,gps,2,1,37.3643635,126.7241742,33.636,"(0.00019600000000000002, 0.0, 0.0, 0.0, 0.00019600000000000002, 0.0, 0.0, 0.0, 0.0001)",2
2022/03/21/14:41:21.817329,32007,1647841281,699963277,gps,2,1,37.3643595,126.7241748,33.633,"(0.00019600000000000002, 0.0, 0.0, 0.0, 0.00019600000000000002, 0.0, 0.0, 0.0, 0.0001)",2
2022/03/21/14:41:21.915755,32008,1647841281,799963253,gps,2,1,37.3643555,126.7241752,33.629,"(0.00019600000000000002, 0.0, 0.0, 0.0, 0.00019600000000000002, 0.0, 0.0, 0.0, 0.0001)",2
2022/03/21/14:41:22.014560,32009,1647841281,899963229,gps,2,1,37.3643516,126.7241756,33.625,"(0.00019600000000000002, 0.0, 0.0, 0.0, 0.00019600000000000002, 0.0, 0.0, 0.0, 0.0001)",2
2022/03/21/14:41:22.116508,32010,1647841281,999963206,gps,2,1,37.3643476,126.7241757,33.621,"(0.00019600000000000002, 0.0, 0.0, 0.0, 0.00019600000000000002, 0.0, 0.0, 0.0, 0.0001)",2
2022/03/21/14:41:22.225769,32011,1647841282,99963181,gps,2,1,37.3643436,126.7241757,33.623,"(0.00019600000000000002, 0.0, 0.0, 0.0, 0.00019600000000000002, 0.0, 0.0, 0.0, 0.0001)",2
2022/03/21/14:41:22.321668,32012,1647841282,199963157,gps,2,1,37.3643395,126.7241756,33.622,"(0.00019600000000000002, 0.0, 0.0, 0.0, 0.00019600000000000002, 0.0, 0.0, 0.0, 0.0001)",2
2022/03/21/14:41:22.417655,32013,1647841282,299963133,gps,2,1,37.3643355,126.7241753,33.62,"(0.00019600000000000002, 0.0, 0.0, 0.0, 0.00019600000000000002, 0.0, 0.0, 0.0, 0.0001)",2
2022/03/21/14:41:22.517127,32014,1647841282,399963109,gps,2,1,37.3643315,126.7241748,33.624,"(0.00019600000000000002, 0.0, 0.0, 0.0, 0.00019600000000000002, 0.0, 0.0, 0.0, 0.0001)",2
